{"total_entries":1668,
"per_page":50,
"current_page":1,
"restaurants":[
{"id":4162,
"name":"Orsay",
"address":"1057-59 Lexington Avenue",
"city":"New York",
"state":"NY",
"area":"New York / Tri-State Area",
"postal_code":"10021",
"country":"US",
"phone":"2125176400x0",
"lat":40.772397,
"lng":-73.960762,
"price":3,
"reserve_url":"http://www.opentable.com/single.aspx?rid=4162",
"mobile_reserve_url":"http://mobile.opentable.com/opentable/?restId=4162",
"image_url":"https://www.opentable.com/img/restimages/4162.jpg"},
{"id":24202,
"name":"Hill Country - Flatiron",
"address":"30 West 26th Street",
"city":"New York",
"state":"NY",
"area":"New York / Tri-State Area",
"postal_code":"10010",
"country":"US",
"phone":"2122554544x10",
"lat":40.744163,
"lng":-73.990471,
"price":2,
"reserve_url":"http://www.opentable.com/single.aspx?rid=24202",
"mobile_reserve_url":"http://mobile.opentable.com/opentable/?restId=24202",
"image_url":"https://www.opentable.com/img/restimages/24202.jpg"},
{"id":97870,
"name":"Bacchanal",
"address":"146 Bowery",
"city":"New York",
"state":"NY",
"area":"New York / Tri-State Area",
"postal_code":"10013",
"country":"US",
"phone":"646-355-1840x",
"lat":40.719441,
"lng":-73.994966,
"price":2,
"reserve_url":"http://www.opentable.com/single.aspx?rid=97870",
"mobile_reserve_url":"http://mobile.opentable.com/opentable/?restId=97870",
"image_url":"https://www.opentable.com/img/restimages/97870.jpg"},
{"id":139675,
"name":"SKÃL",
"address":"37 Canal St.",
"city":"New York",
"state":"NY",
"area":"New York / Tri-State Area",
"postal_code":"10002",
"country":"US",
"phone":"2127777518",
"lat":40.71476,
"lng":-73.990943,
"price":3,
"reserve_url":"http://www.opentable.com/single.aspx?rid=139675",
"mobile_reserve_url":"http://mobile.opentable.com/opentable/?restId=139675",
"image_url":"https://www.opentable.com/img/restimages/139675.jpg"},
{"id":5656,
"name":"MINT",
"address":"150 E. 50th Street",
"city":"New York",
"state":"NY",
"area":"New York / Tri-State Area",
"postal_code":"10022",
"country":"US",
"phone":"2126448888",
"lat":40.756,
"lng":-73.972,
"price":3,
"reserve_url":"http://www.opentable.com/single.aspx?rid=5656",
"mobile_reserve_url":"http://mobile.opentable.com/opentable/?restId=5656",
"image_url":"https://www.opentable.com/img/restimages/5656.jpg"},
{"id":118534,
"name":"Ariana",
"address":"138-140 W Houston St",
"city":"New York",
"state":"NY",
"area":"New York / Tri-State Area",
"postal_code":"10012",
"country":"US",
"phone":"6466784334x",
"lat":40.727871,
"lng":-74.001626,
"price":3,
"reserve_url":"http://www.opentable.com/single.aspx?rid=118534",
"mobile_reserve_url":"http://mobile.opentable.com/opentable/?restId=118534",
"image_url":"https://www.opentable.com/img/restimages/118534.jpg"},
{"id":108091,
"name":"Hudson Place Restaurant \u0026 Bar",
"address":"538 3rd Ave",
"city":"New York",
"state":"NY",
"area":"New York / Tri-State Area",
"postal_code":"10016",
"country":"US",
"phone":"2126866660x",
"lat":40.747048,
"lng":-73.97755,
"price":2,
"reserve_url":"http://www.opentable.com/single.aspx?rid=108091",
"mobile_reserve_url":"http://mobile.opentable.com/opentable/?restId=108091",
"image_url":"https://www.opentable.com/img/restimages/108091.jpg"},
{"id":152554,
"name":"Perla",
"address":"24 Minetta Lane",
"city":"New York",
"state":"NY",
"area":"New York / Tri-State Area",
"postal_code":"10012",
"country":"US",
"phone":"2129331824",
"lat":40.730469,
"lng":-74.001262,
"price":3,
"reserve_url":"http://www.opentable.com/single.aspx?rid=152554",
"mobile_reserve_url":"http://mobile.opentable.com/opentable/?restId=152554",
"image_url":"https://www.opentable.com/img/restimages/152554.jpg"},
{"id":112417,
"name":"Lazzara's Pizza Cafe",
"address":"221 West 38th Street",
"city":"New York",
"state":"NY",
"area":"New York / Tri-State Area",
"postal_code":"10018",
"country":"US",
"phone":"2129447792",
"lat":40.753932,
"lng":-73.989547,
"price":2,
"reserve_url":"http://www.opentable.com/single.aspx?rid=112417",
"mobile_reserve_url":"http://mobile.opentable.com/opentable/?restId=112417",
"image_url":"https://www.opentable.com/img/restimages/112417.jpg"},
{"id":108433,
"name":"CAMAJE Bistro",
"address":"85 MacDougal St",
"city":"New York",
"state":"NY",
"area":"New York / Tri-State Area",
"postal_code":"10012",
"country":"US",
"phone":"2126738184",
"lat":40.728884,
"lng":-74.001561,
"price":2,
"reserve_url":"http://www.opentable.com/single.aspx?rid=108433",
"mobile_reserve_url":"http://mobile.opentable.com/opentable/?restId=108433",
"image_url":"https://www.opentable.com/img/restimages/108433.jpg"},
{"id":104296,
"name":"Barn Joo",
"address":"893 Broadway",
"city":"New York",
"state":"NY",
"area":"New York / Tri-State Area",
"postal_code":"10003",
"country":"US",
"phone":"6463989663x",
"lat":40.738912,
"lng":-73.990223,
"price":3,
"reserve_url":"http://www.opentable.com/single.aspx?rid=104296",
"mobile_reserve_url":"http://mobile.opentable.com/opentable/?restId=104296",
"image_url":"https://www.opentable.com/img/restimages/104296.jpg"},
{"id":63580,
"name":"Mulberry Project",
"address":"149 Mulberry St.",
"city":"New York",
"state":"NY",
"area":"New York / Tri-State Area",
"postal_code":"10013",
"country":"US",
"phone":"6464484536",
"lat":40.719077,
"lng":-73.997689,
"price":3,
"reserve_url":"http://www.opentable.com/single.aspx?rid=63580",
"mobile_reserve_url":"http://mobile.opentable.com/opentable/?restId=63580",
"image_url":"https://www.opentable.com/img/restimages/63580.jpg"},
{"id":111841,
"name":"The Writing Room",
"address":"1703 2nd Avenue",
"city":"New York",
"state":"NY",
"area":"New York / Tri-State Area",
"postal_code":"10128",
"country":"US",
"phone":"2123350075x",
"lat":40.779544,
"lng":-73.950638,
"price":2,
"reserve_url":"http://www.opentable.com/single.aspx?rid=111841",
"mobile_reserve_url":"http://mobile.opentable.com/opentable/?restId=111841",
"image_url":"https://www.opentable.com/img/restimages/111841.jpg"},
{"id":52969,
"name":"Ai Fiori",
"address":"400 5th Avenue",
"city":"New York",
"state":"NY",
"area":"New York / Tri-State Area",
"postal_code":"10018",
"country":"US",
"phone":"2126138660x",
"lat":40.750228,
"lng":-73.983714,
"price":3,
"reserve_url":"http://www.opentable.com/single.aspx?rid=52969",
"mobile_reserve_url":"http://mobile.opentable.com/opentable/?restId=52969",
"image_url":"https://www.opentable.com/img/restimages/52969.jpg"},
{"id":38164,
"name":"Spina",
"address":"175 Avenue B",
"city":"New York",
"state":"NY",
"area":"New York / Tri-State Area",
"postal_code":"10009",
"country":"US",
"phone":"2122532250",
"lat":40.727479,
"lng":-73.979187,
"price":3,
"reserve_url":"http://www.opentable.com/single.aspx?rid=38164",
"mobile_reserve_url":"http://mobile.opentable.com/opentable/?restId=38164",
"image_url":"https://www.opentable.com/img/restimages/38164.jpg"},
{"id":95353,
"name":"Maysville",
"address":"17 W. 26th St",
"city":"New York",
"state":"NY",
"area":"New York / Tri-State Area",
"postal_code":"10010",
"country":"US",
"phone":"6464908240x",
"lat":40.744061,
"lng":-73.989671,
"price":3,
"reserve_url":"http://www.opentable.com/single.aspx?rid=95353",
"mobile_reserve_url":"http://mobile.opentable.com/opentable/?restId=95353",
"image_url":"https://www.opentable.com/img/restimages/95353.jpg"},
{"id":101131,
"name":"Grape \u0026 Vine",
"address":"52 W 13th Street",
"city":"New York",
"state":"NY",
"area":"New York / Tri-State Area",
"postal_code":"10011",
"country":"US",
"phone":"2123004525x",
"lat":40.736317,
"lng":-73.996523,
"price":3,
"reserve_url":"http://www.opentable.com/single.aspx?rid=101131",
"mobile_reserve_url":"http://mobile.opentable.com/opentable/?restId=101131",
"image_url":"https://www.opentable.com/img/restimages/101131.jpg"},
{"id":99322,
"name":"Barca",
"address":"244 Mulberry St.",
"city":"New York",
"state":"NY",
"area":"New York / Tri-State Area",
"postal_code":"10012",
"country":"US",
"phone":"2127750112x",
"lat":40.722925,
"lng":-73.995806,
"price":3,
"reserve_url":"http://www.opentable.com/single.aspx?rid=99322",
"mobile_reserve_url":"http://mobile.opentable.com/opentable/?restId=99322",
"image_url":"https://www.opentable.com/img/restimages/99322.jpg"},
{"id":135925,
"name":"Tacombi Fonda Nolita",
"address":"267 Elizabeth St",
"city":"New York",
"state":"NY",
"area":"New York / Tri-State Area",
"postal_code":"10012",
"country":"US",
"phone":"9177270179x",
"lat":40.724046,
"lng":-73.993875,
"price":2,
"reserve_url":"http://www.opentable.com/single.aspx?rid=135925",
"mobile_reserve_url":"http://mobile.opentable.com/opentable/?restId=135925",
"image_url":"https://www.opentable.com/img/restimages/135925.jpg"},
{"id":63154,
"name":"Kori Tribeca",
"address":"253 Church Street",
"city":"New York",
"state":"NY",
"area":"New York / Tri-State Area",
"postal_code":"10013",
"country":"US",
"phone":"212-334-0908x",
"lat":40.71781,
"lng":-74.005445,
"price":2,
"reserve_url":"http://www.opentable.com/single.aspx?rid=63154",
"mobile_reserve_url":"http://mobile.opentable.com/opentable/?restId=63154",
"image_url":"https://www.opentable.com/img/restimages/63154.jpg"},
{"id":69439,
"name":"Kafana",
"address":"116 Avenue C",
"city":"New York",
"state":"NY",
"area":"New York / Tri-State Area",
"postal_code":"10009",
"country":"US",
"phone":"2123538000",
"lat":40.724426,
"lng":-73.978581,
"price":2,
"reserve_url":"http://www.opentable.com/single.aspx?rid=69439",
"mobile_reserve_url":"http://mobile.opentable.com/opentable/?restId=69439",
"image_url":"https://www.opentable.com/img/restimages/69439.jpg"},
{"id":64942,
"name":"Nick \u0026 Toni's Cafe Manhattan",
"address":"100 W. 67th St.",
"city":"New York",
"state":"NY",
"area":"New York / Tri-State Area",
"postal_code":"10023",
"country":"US",
"phone":"2124964000x",
"lat":40.774287,
"lng":-73.981473,
"price":2,
"reserve_url":"http://www.opentable.com/single.aspx?rid=64942",
"mobile_reserve_url":"http://mobile.opentable.com/opentable/?restId=64942",
"image_url":"https://www.opentable.com/img/restimages/64942.jpg"},
{"id":68272,
"name":"Dark Horse",
"address":"17 Murray Street",
"city":"New York",
"state":"NY",
"area":"New York / Tri-State Area",
"postal_code":"10007",
"country":"US",
"phone":"2126083900",
"lat":40.713718,
"lng":-74.008036,
"price":2,
"reserve_url":"http://www.opentable.com/single.aspx?rid=68272",
"mobile_reserve_url":"http://mobile.opentable.com/opentable/?restId=68272",
"image_url":"https://www.opentable.com/img/restimages/68272.jpg"},
{"id":5274,
"name":"Dinosaur Bar-B-Que - Harlem",
"address":"700 west 125th st",
"city":"New York",
"state":"NY",
"area":"New York / Tri-State Area",
"postal_code":"10027",
"country":"US",
"phone":"2126941777x",
"lat":40.818118,
"lng":-73.960517,
"price":2,
"reserve_url":"http://www.opentable.com/single.aspx?rid=5274",
"mobile_reserve_url":"http://mobile.opentable.com/opentable/?restId=5274",
"image_url":"https://www.opentable.com/img/restimages/5274.jpg"},
{"id":146086,
"name":"Chapter One",
"address":"33 Greenwich Avenue",
"city":"New York",
"state":"NY",
"area":"New York / Tri-State Area",
"postal_code":"10014",
"country":"US",
"phone":"2128429146",
"lat":40.734985,
"lng":-74.000451,
"price":2,
"reserve_url":"http://www.opentable.com/single.aspx?rid=146086",
"mobile_reserve_url":"http://mobile.opentable.com/opentable/?restId=146086",
"image_url":"https://www.opentable.com/img/restimages/146086.jpg"},
{"id":57898,
"name":"Kyochon",
"address":"319 5th Avenue",
"city":"New York",
"state":"NY",
"area":"New York / Tri-State Area",
"postal_code":"10016",
"country":"US",
"phone":"2127259292",
"lat":40.747287,
"lng":-73.985496,
"price":2,
"reserve_url":"http://www.opentable.com/single.aspx?rid=57898",
"mobile_reserve_url":"http://mobile.opentable.com/opentable/?restId=57898",
"image_url":"https://www.opentable.com/img/restimages/57898.jpg"},
{"id":50587,
"name":"Kin Shop",
"address":"469 6th Avenue",
"city":"New York",
"state":"NY",
"area":"New York / Tri-State Area",
"postal_code":"10011",
"country":"US",
"phone":"2126754295",
"lat":40.73554,
"lng":-73.998182,
"price":3,
"reserve_url":"http://www.opentable.com/single.aspx?rid=50587",
"mobile_reserve_url":"http://mobile.opentable.com/opentable/?restId=50587",
"image_url":"https://www.opentable.com/img/restimages/50587.jpg"},
{"id":94081,
"name":"83 1/2",
"address":"345-349 East 83rd Street",
"city":"New York",
"state":"NY",
"area":"New York / Tri-State Area",
"postal_code":"10028",
"country":"US",
"phone":"2127378312x",
"lat":40.775211,
"lng":-73.951233,
"price":2,
"reserve_url":"http://www.opentable.com/single.aspx?rid=94081",
"mobile_reserve_url":"http://mobile.opentable.com/opentable/?restId=94081",
"image_url":"https://www.opentable.com/img/restimages/94081.jpg"},
{"id":2294,
"name":"WallsÃ©",
"address":"344 W. 11th St.",
"city":"New York",
"state":"NY",
"area":"New York / Tri-State Area",
"postal_code":"10014",
"country":"US",
"phone":"2123522300x",
"lat":40.7355,
"lng":-74.0083,
"price":4,
"reserve_url":"http://www.opentable.com/single.aspx?rid=2294",
"mobile_reserve_url":"http://mobile.opentable.com/opentable/?restId=2294",
"image_url":"https://www.opentable.com/img/restimages/2294.jpg"},
{"id":112918,
"name":"Tao Downtown",
"address":"92 Ninth Ave",
"city":"New York",
"state":"NY",
"area":"New York / Tri-State Area",
"postal_code":"10011",
"country":"US",
"phone":"2128882724x",
"lat":40.742614,
"lng":-74.004205,
"price":4,
"reserve_url":"http://www.opentable.com/single.aspx?rid=112918",
"mobile_reserve_url":"http://mobile.opentable.com/opentable/?restId=112918",
"image_url":"https://www.opentable.com/img/restimages/112918.jpg"},
{"id":78406,
"name":"Betony",
"address":"41 West 57th St.",
"city":"New York",
"state":"NY",
"area":"New York / Tri-State Area",
"postal_code":"10019",
"country":"US",
"phone":"2124652400x",
"lat":40.764169,
"lng":-73.976398,
"price":4,
"reserve_url":"http://www.opentable.com/single.aspx?rid=78406",
"mobile_reserve_url":"http://mobile.opentable.com/opentable/?restId=78406",
"image_url":"https://www.opentable.com/img/restimages/78406.jpg"},
{"id":58909,
"name":"Bacaro",
"address":"136 Division Street",
"city":"New York",
"state":"NY",
"area":"New York / Tri-State Area",
"postal_code":"10002",
"country":"US",
"phone":"2129415060",
"lat":40.714571,
"lng":-73.991544,
"price":2,
"reserve_url":"http://www.opentable.com/single.aspx?rid=58909",
"mobile_reserve_url":"http://mobile.opentable.com/opentable/?restId=58909",
"image_url":"https://www.opentable.com/img/restimages/58909.jpg"},
{"id":108874,
"name":"da Umberto",
"address":"107 W 17th St",
"city":"New York",
"state":"NY",
"area":"New York / Tri-State Area",
"postal_code":"10011",
"country":"US",
"phone":"212 989 0303",
"lat":40.739656,
"lng":-73.995914,
"price":4,
"reserve_url":"http://www.opentable.com/single.aspx?rid=108874",
"mobile_reserve_url":"http://mobile.opentable.com/opentable/?restId=108874",
"image_url":"https://www.opentable.com/img/restimages/108874.jpg"},
{"id":147739,
"name":"Spiegel",
"address":"26 1st Avenue",
"city":"New York",
"state":"NY",
"area":"New York / Tri-State Area",
"postal_code":"10009",
"country":"US",
"phone":"2122282894",
"lat":40.723689,
"lng":-73.987787,
"price":2,
"reserve_url":"http://www.opentable.com/single.aspx?rid=147739",
"mobile_reserve_url":"http://mobile.opentable.com/opentable/?restId=147739",
"image_url":"https://www.opentable.com/img/restimages/147739.jpg"},
{"id":144703,
"name":"John Dory Oyster Bar",
"address":"1196 Broadway",
"city":"New York",
"state":"NY",
"area":"New York / Tri-State Area",
"postal_code":"10001",
"country":"US",
"phone":"2127929000x",
"lat":40.745962,
"lng":-73.988622,
"price":4,
"reserve_url":"http://www.opentable.com/single.aspx?rid=144703",
"mobile_reserve_url":"http://mobile.opentable.com/opentable/?restId=144703",
"image_url":"https://www.opentable.com/img/restimages/144703.jpg"},
{"id":112210,
"name":"Cagen",
"address":"414 E 9th St",
"city":"New York",
"state":"NY",
"area":"New York / Tri-State Area",
"postal_code":"10009",
"country":"US",
"phone":"2123588800x",
"lat":40.727626,
"lng":-73.983795,
"price":4,
"reserve_url":"http://www.opentable.com/single.aspx?rid=112210",
"mobile_reserve_url":"http://mobile.opentable.com/opentable/?restId=112210",
"image_url":"https://www.opentable.com/img/restimages/112210.jpg"},
{"id":147904,
"name":"Il Mulino Prime",
"address":"331 West Broadway",
"city":"New York",
"state":"NY",
"area":"New York / Tri-State Area",
"postal_code":"10013",
"country":"US",
"phone":"2122260020x",
"lat":40.722184,
"lng":-74.003747,
"price":4,
"reserve_url":"http://www.opentable.com/single.aspx?rid=147904",
"mobile_reserve_url":"http://mobile.opentable.com/opentable/?restId=147904",
"image_url":"https://www.opentable.com/img/restimages/147904.jpg"},
{"id":92383,
"name":"Il Mulino Uptown",
"address":"37 East 60th",
"city":"New York",
"state":"NY",
"area":"New York / Tri-State Area",
"postal_code":"10021",
"country":"US",
"phone":"2127503270x",
"lat":40.764143,
"lng":-73.970194,
"price":4,
"reserve_url":"http://www.opentable.com/single.aspx?rid=92383",
"mobile_reserve_url":"http://mobile.opentable.com/opentable/?restId=92383",
"image_url":"https://www.opentable.com/img/restimages/92383.jpg"},
{"id":4582,
"name":"BLT Prime",
"address":"111 East 22nd Street",
"city":"New York",
"state":"NY",
"area":"New York / Tri-State Area",
"postal_code":"10010",
"country":"US",
"phone":"2129958500",
"lat":40.739,
"lng":-73.986,
"price":4,
"reserve_url":"http://www.opentable.com/single.aspx?rid=4582",
"mobile_reserve_url":"http://mobile.opentable.com/opentable/?restId=4582",
"image_url":"https://www.opentable.com/img/restimages/4582.jpg"},
{"id":301,
"name":"21 Club",
"address":"21 West 52nd Street",
"city":"New York",
"state":"NY",
"area":"New York / Tri-State Area",
"postal_code":"10019",
"country":"US",
"phone":"2125827200x",
"lat":40.760225,
"lng":-73.97706,
"price":4,
"reserve_url":"http://www.opentable.com/single.aspx?rid=301",
"mobile_reserve_url":"http://mobile.opentable.com/opentable/?restId=301",
"image_url":"https://www.opentable.com/img/restimages/301.jpg"},
{"id":151969,
"name":"Room 53",
"address":"314 W 53rd Street",
"city":"New York",
"state":"AL",
"area":"New York / Tri-State Area",
"postal_code":"10019",
"country":"US",
"phone":"6466755341",
"lat":40.768697,
"lng":-73.991818,
"price":2,
"reserve_url":"http://www.opentable.com/single.aspx?rid=151969",
"mobile_reserve_url":"http://mobile.opentable.com/opentable/?restId=151969",
"image_url":"https://www.opentable.com/img/restimages/151969.jpg"},
{"id":1791,
"name":"BONDST",
"address":"6 Bond Street",
"city":"New York",
"state":"NY",
"area":"New York / Tri-State Area",
"postal_code":"10012",
"country":"US",
"phone":"2127772500",
"lat":40.727194,
"lng":-73.994692,
"price":4,
"reserve_url":"http://www.opentable.com/single.aspx?rid=1791",
"mobile_reserve_url":"http://mobile.opentable.com/opentable/?restId=1791",
"image_url":"https://www.opentable.com/img/restimages/1791.jpg"},
{"id":105019,
"name":"44 \u0026 X",
"address":"622 Tenth Ave",
"city":"New York",
"state":"NY",
"area":"New York / Tri-State Area",
"postal_code":"10036",
"country":"US",
"phone":"2129771170",
"lat":40.761123,
"lng":-73.994355,
"price":4,
"reserve_url":"http://www.opentable.com/single.aspx?rid=105019",
"mobile_reserve_url":"http://mobile.opentable.com/opentable/?restId=105019",
"image_url":"https://www.opentable.com/img/restimages/105019.jpg"},
{"id":102811,
"name":"The Monarch Room",
"address":"408 West 15th",
"city":"New York",
"state":"NY",
"area":"New York / Tri-State Area",
"postal_code":"10011",
"country":"US",
"phone":"6467907070x",
"lat":40.741777,
"lng":-74.005794,
"price":4,
"reserve_url":"http://www.opentable.com/single.aspx?rid=102811",
"mobile_reserve_url":"http://mobile.opentable.com/opentable/?restId=102811",
"image_url":"https://www.opentable.com/img/restimages/102811.jpg"},
{"id":30628,
"name":"Minetta Tavern",
"address":"113 MacDougal St",
"city":"New York",
"state":"NY",
"area":"New York / Tri-State Area",
"postal_code":"10012",
"country":"US",
"phone":"2124753850x",
"lat":40.730016,
"lng":-74.000623,
"price":4,
"reserve_url":"http://www.opentable.com/single.aspx?rid=30628",
"mobile_reserve_url":"http://mobile.opentable.com/opentable/?restId=30628",
"image_url":"https://www.opentable.com/img/restimages/30628.jpg"},
{"id":5003,
"name":"Morimoto New York",
"address":"88 10th Avenue",
"city":"New York",
"state":"NY",
"area":"New York / Tri-State Area",
"postal_code":"10011",
"country":"US",
"phone":"2129898883",
"lat":40.743236,
"lng":-74.007408,
"price":4,
"reserve_url":"http://www.opentable.com/single.aspx?rid=5003",
"mobile_reserve_url":"http://mobile.opentable.com/opentable/?restId=5003",
"image_url":"https://www.opentable.com/img/restimages/5003.jpg"},
{"id":148597,
"name":"Dylan's Candy Bar",
"address":"1011 3rd Avenue",
"city":"New York",
"state":"NY",
"area":"New York / Tri-State Area",
"postal_code":"10065",
"country":"US",
"phone":"6466198656x",
"lat":40.762213,
"lng":-73.96577,
"price":2,
"reserve_url":"http://www.opentable.com/single.aspx?rid=148597",
"mobile_reserve_url":"http://mobile.opentable.com/opentable/?restId=148597",
"image_url":"https://www.opentable.com/img/restimages/148597.jpg"},
{"id":45733,
"name":"Iguana",
"address":"240 West 54th Street",
"city":"New York",
"state":"NY",
"area":"New York / Tri-State Area",
"postal_code":"10019",
"country":"US",
"phone":"2127655454x",
"lat":40.76428,
"lng":-73.983221,
"price":2,
"reserve_url":"http://www.opentable.com/single.aspx?rid=45733",
"mobile_reserve_url":"http://mobile.opentable.com/opentable/?restId=45733",
"image_url":"https://www.opentable.com/img/restimages/45733.jpg"},
{"id":114283,
"name":"Harlem Tavern",
"address":"2153 Frederick Douglas Blvd",
"city":"New York",
"state":"NY",
"area":"New York / Tri-State Area",
"postal_code":"10026",
"country":"US",
"phone":"2128664500",
"lat":40.804768,
"lng":-73.955696,
"price":2,
"reserve_url":"http://www.opentable.com/single.aspx?rid=114283",
"mobile_reserve_url":"http://mobile.opentable.com/opentable/?restId=114283",
"image_url":"https://www.opentable.com/img/restimages/114283.jpg"},
{"id":144265,
"name":"Paname French Restaurant",
"address":"1068 2nd Avenue",
"city":"New York",
"state":"NY",
"area":"New York / Tri-State Area",
"postal_code":"10022",
"country":"US",
"phone":"2122073737",
"lat":40.758669,
"lng":-73.965406,
"price":2,
"reserve_url":"http://www.opentable.com/single.aspx?rid=144265",
"mobile_reserve_url":"http://mobile.opentable.com/opentable/?restId=144265",
"image_url":"https://www.opentable.com/img/restimages/144265.jpg"}]}